{
"type": "FeatureCollection",
"name": "bus_stops_san_leandro",
"crs": { "type": "name", "properties": { "name": "urn:ogc:def:crs:EPSG::3857" } },
"features": [
{ "type": "Feature", "properties": { "_id": 3452, "stop_id": 4362, "stop_code": 56509, "stop_name": "Monarch Bay Dr & Mulford Point Dr", "stop_desc": " ", "stop_lat": 37.699041, "stop_lon": -122.189007, "zone_id": "E", "stop_url": "https://www.actransit.org/stop/56509", "location_type": " ", "parent_station": " ", "stop_timezone": " ", "wheelchair_boarding": 0 }, "geometry": { "type": "Point", "coordinates": [ -13602018.039775740355253, 4536997.206476185470819 ] } },
{ "type": "Feature", "properties": { "_id": 3451, "stop_id": 4361, "stop_code": 56503, "stop_name": "Monarch Bay Dr & Mulford Point Dr", "stop_desc": " ", "stop_lat": 37.699236, "stop_lon": -122.189003, "zone_id": "E", "stop_url": "https://www.actransit.org/stop/56503", "location_type": " ", "parent_station": " ", "stop_timezone": " ", "wheelchair_boarding": 0 }, "geometry": { "type": "Point", "coordinates": [ -13602017.59449777752161, 4537024.641262363642454 ] } },
{ "type": "Feature", "properties": { "_id": 3450, "stop_id": 4360, "stop_code": 55491, "stop_name": "Monarch Bay Dr & Neptune Dr", "stop_desc": " ", "stop_lat": 37.70078, "stop_lon": -122.189195, "zone_id": "E", "stop_url": "https://www.actransit.org/stop/55491", "location_type": " ", "parent_station": " ", "stop_timezone": " ", "wheelchair_boarding": 0 }, "geometry": { "type": "Point", "coordinates": [ -13602038.967840008437634, 4537241.871040273457766 ] } },
{ "type": "Feature", "properties": { "_id": 3440, "stop_id": 4348, "stop_code": 55281, "stop_name": "Marina Blvd & Neptune Dr", "stop_desc": " ", "stop_lat": 37.701342, "stop_lon": -122.188776, "zone_id": "E", "stop_url": "https://www.actransit.org/stop/55281", "location_type": " ", "parent_station": " ", "stop_timezone": " ", "wheelchair_boarding": 0 }, "geometry": { "type": "Point", "coordinates": [ -13601992.324973367154598, 4537320.94155150372535 ] } },
{ "type": "Feature", "properties": { "_id": 3481, "stop_id": 4435, "stop_code": 55318, "stop_name": "Marina Blvd & Aurora Dr", "stop_desc": " ", "stop_lat": 37.702695, "stop_lon": -122.185525, "zone_id": "E", "stop_url": "https://www.actransit.org/stop/55318", "location_type": " ", "parent_station": " ", "stop_timezone": " ", "wheelchair_boarding": 0 }, "geometry": { "type": "Point", "coordinates": [ -13601630.425308797508478, 4537511.304155746474862 ] } },
{ "type": "Feature", "properties": { "_id": 4658, "stop_id": 6442, "stop_code": 53581, "stop_name": "Marina Blvd & Aurora Dr", "stop_desc": " ", "stop_lat": 37.702764, "stop_lon": -122.18501, "zone_id": "E", "stop_url": "https://www.actransit.org/stop/53581", "location_type": " ", "parent_station": " ", "stop_timezone": " ", "wheelchair_boarding": 0 }, "geometry": { "type": "Point", "coordinates": [ -13601573.095771038904786, 4537521.012319591827691 ] } },
{ "type": "Feature", "properties": { "_id": 4653, "stop_id": 6437, "stop_code": 50648, "stop_name": "Doolittle Dr & Barrow St", "stop_desc": " ", "stop_lat": 37.705774, "stop_lon": -122.180946, "zone_id": "E", "stop_url": "https://www.actransit.org/stop/50648", "location_type": " ", "parent_station": " ", "stop_timezone": " ", "wheelchair_boarding": 0 }, "geometry": { "type": "Point", "coordinates": [ -13601120.693360455334187, 4537944.522176192142069 ] } },
{ "type": "Feature", "properties": { "_id": 4709, "stop_id": 6493, "stop_code": 53731, "stop_name": "Doolittle Dr & Barrow St", "stop_desc": " ", "stop_lat": 37.705916, "stop_lon": -122.180766, "zone_id": "E", "stop_url": "https://www.actransit.org/stop/53731", "location_type": " ", "parent_station": " ", "stop_timezone": " ", "wheelchair_boarding": 0 }, "geometry": { "type": "Point", "coordinates": [ -13601100.655852112919092, 4537964.502135786227882 ] } },
{ "type": "Feature", "properties": { "_id": 4654, "stop_id": 6438, "stop_code": 50841, "stop_name": "Doolittle Dr & Sitka St", "stop_desc": " ", "stop_lat": 37.707939, "stop_lon": -122.182376, "zone_id": "E", "stop_url": "https://www.actransit.org/stop/50841", "location_type": " ", "parent_station": " ", "stop_timezone": " ", "wheelchair_boarding": 0 }, "geometry": { "type": "Point", "coordinates": [ -13601279.880232291296124, 4538249.150365487672389 ] } },
{ "type": "Feature", "properties": { "_id": 3505, "stop_id": 4468, "stop_code": 50687, "stop_name": "Williams St & Doolittle Dr", "stop_desc": " ", "stop_lat": 37.708359, "stop_lon": -122.18186, "zone_id": "E", "stop_url": "https://www.actransit.org/stop/50687", "location_type": " ", "parent_station": " ", "stop_timezone": " ", "wheelchair_boarding": 0 }, "geometry": { "type": "Point", "coordinates": [ -13601222.439375041052699, 4538308.247857785783708 ] } },
{ "type": "Feature", "properties": { "_id": 3504, "stop_id": 4467, "stop_code": 50686, "stop_name": "2051 Williams St", "stop_desc": " ", "stop_lat": 37.709918, "stop_lon": -122.178127, "zone_id": "E", "stop_url": "https://www.actransit.org/stop/50686", "location_type": " ", "parent_station": " ", "stop_timezone": " ", "wheelchair_boarding": 0 }, "geometry": { "type": "Point", "coordinates": [ -13600806.883715908974409, 4538527.615049839019775 ] } },
{ "type": "Feature", "properties": { "_id": 3511, "stop_id": 4474, "stop_code": 50732, "stop_name": "2020 Williams St", "stop_desc": " ", "stop_lat": 37.710075, "stop_lon": -122.178165, "zone_id": "E", "stop_url": "https://www.actransit.org/stop/50732", "location_type": " ", "parent_station": " ", "stop_timezone": " ", "wheelchair_boarding": 0 }, "geometry": { "type": "Point", "coordinates": [ -13600811.113856559619308, 4538549.706806031055748 ] } },
{ "type": "Feature", "properties": { "_id": 3446, "stop_id": 4354, "stop_code": 55469, "stop_name": "Merced St & Marina Blvd", "stop_desc": " ", "stop_lat": 37.708142, "stop_lon": -122.170708, "zone_id": "E", "stop_url": "https://www.actransit.org/stop/55469", "location_type": " ", "parent_station": " ", "stop_timezone": " ", "wheelchair_boarding": 0 }, "geometry": { "type": "Point", "coordinates": [ -13599981.004413714632392, 4538277.71411161404103 ] } },
{ "type": "Feature", "properties": { "_id": 3501, "stop_id": 4464, "stop_code": 50673, "stop_name": "Merced St & Marina Blvd", "stop_desc": " ", "stop_lat": 37.709203, "stop_lon": -122.171103, "zone_id": "E", "stop_url": "https://www.actransit.org/stop/50673", "location_type": " ", "parent_station": " ", "stop_timezone": " ", "wheelchair_boarding": 0 }, "geometry": { "type": "Point", "coordinates": [ -13600024.975612577050924, 4538427.006688405759633 ] } },
{ "type": "Feature", "properties": { "_id": 3503, "stop_id": 4466, "stop_code": 50679, "stop_name": "Williams St & Westgate Pkwy", "stop_desc": " ", "stop_lat": 37.71143, "stop_lon": -122.174877, "zone_id": "E", "stop_url": "https://www.actransit.org/stop/50679", "location_type": " ", "parent_station": " ", "stop_timezone": " ", "wheelchair_boarding": 0 }, "geometry": { "type": "Point", "coordinates": [ -13600445.095370830968022, 4538740.373271179385483 ] } },
{ "type": "Feature", "properties": { "_id": 3449, "stop_id": 4359, "stop_code": 51950, "stop_name": "Merced St & Williams St", "stop_desc": " ", "stop_lat": 37.711657, "stop_lon": -122.173031, "zone_id": "E", "stop_url": "https://www.actransit.org/stop/51950", "location_type": " ", "parent_station": " ", "stop_timezone": " ", "wheelchair_boarding": 0 }, "geometry": { "type": "Point", "coordinates": [ -13600239.599590826779604, 4538772.315521801821887 ] } },
{ "type": "Feature", "properties": { "_id": 3502, "stop_id": 4465, "stop_code": 50674, "stop_name": "Westgate Pkwy & Williams St", "stop_desc": " ", "stop_lat": 37.711846, "stop_lon": -122.174627, "zone_id": "E", "stop_url": "https://www.actransit.org/stop/50674", "location_type": " ", "parent_station": " ", "stop_timezone": " ", "wheelchair_boarding": 0 }, "geometry": { "type": "Point", "coordinates": [ -13600417.265498133376241, 4538798.910686179064214 ] } },
{ "type": "Feature", "properties": { "_id": 3498, "stop_id": 4459, "stop_code": 50424, "stop_name": "Westgate Pkwy & #Walmart", "stop_desc": " ", "stop_lat": 37.714379, "stop_lon": -122.176482, "zone_id": "E", "stop_url": "https://www.actransit.org/stop/50424", "location_type": " ", "parent_station": " ", "stop_timezone": " ", "wheelchair_boarding": 0 }, "geometry": { "type": "Point", "coordinates": [ -13600623.763153553009033, 4539155.348721720278263 ] } },
{ "type": "Feature", "properties": { "_id": 3497, "stop_id": 4458, "stop_code": 50423, "stop_name": "Westgate Pkwy & #Walmart", "stop_desc": " ", "stop_lat": 37.715143, "stop_lon": -122.176904, "zone_id": "E", "stop_url": "https://www.actransit.org/stop/50423", "location_type": " ", "parent_station": " ", "stop_timezone": " ", "wheelchair_boarding": 0 }, "geometry": { "type": "Point", "coordinates": [ -13600670.739978669211268, 4539262.859467026777565 ] } },
{ "type": "Feature", "properties": { "_id": 3496, "stop_id": 4457, "stop_code": 50421, "stop_name": "Westgate Pkwy & Davis St", "stop_desc": " ", "stop_lat": 37.717976, "stop_lon": -122.178919, "zone_id": "E", "stop_url": "https://www.actransit.org/stop/50421", "location_type": " ", "parent_station": " ", "stop_timezone": " ", "wheelchair_boarding": 0 }, "geometry": { "type": "Point", "coordinates": [ -13600895.048752615228295, 4539661.531371572986245 ] } },
{ "type": "Feature", "properties": { "_id": 3499, "stop_id": 4460, "stop_code": 50425, "stop_name": "Westgate Pkwy & Davis St", "stop_desc": " ", "stop_lat": 37.718168, "stop_lon": -122.179304, "zone_id": "E", "stop_url": "https://www.actransit.org/stop/50425", "location_type": " ", "parent_station": " ", "stop_timezone": " ", "wheelchair_boarding": 0 }, "geometry": { "type": "Point", "coordinates": [ -13600937.906756572425365, 4539688.550986248999834 ] } }
]
}
