{
"type": "FeatureCollection",
"name": "bus_stops_alameda",
"crs": { "type": "name", "properties": { "name": "urn:ogc:def:crs:EPSG::3857" } },
"features": [
{ "type": "Feature", "properties": { "_id": 4521, "stop_id": 6257, "stop_code": 55873, "stop_name": "Ralph Appezzato Memorial Pkwy & Alameda College", "stop_desc": " ", "stop_lat": 37.779813, "stop_lon": -122.279071, "zone_id": "E", "stop_url": "https://www.actransit.org/stop/55873", "location_type": " ", "parent_station": " ", "stop_timezone": " ", "wheelchair_boarding": 0 }, "geometry": { "type": "Point", "coordinates": [ -13612043.918394545093179, 4548367.300967891700566 ] } },
{ "type": "Feature", "properties": { "_id": 4640, "stop_id": 6424, "stop_code": 54697, "stop_name": "Atlantic Av & 3rd St", "stop_desc": " ", "stop_lat": 37.78002, "stop_lon": -122.288115, "zone_id": "E", "stop_url": "https://www.actransit.org/stop/54697", "location_type": " ", "parent_station": " ", "stop_timezone": " ", "wheelchair_boarding": 0 }, "geometry": { "type": "Point", "coordinates": [ -13613050.691869279369712, 4548396.455845188349485 ] } },
{ "type": "Feature", "properties": { "_id": 4523, "stop_id": 6260, "stop_code": 51595, "stop_name": "Ralph Appezzato Memorial Pkwy & Coral Sea St", "stop_desc": " ", "stop_lat": 37.780104, "stop_lon": -122.284981, "zone_id": "E", "stop_url": "https://www.actransit.org/stop/51595", "location_type": " ", "parent_station": " ", "stop_timezone": " ", "wheelchair_boarding": 0 }, "geometry": { "type": "Point", "coordinates": [ -13612701.816585132852197, 4548408.286833175458014 ] } },
{ "type": "Feature", "properties": { "_id": 170, "stop_id": 196, "stop_code": 53545, "stop_name": "Central Av & Pacific Av", "stop_desc": " ", "stop_lat": 37.775694, "stop_lon": -122.29115, "zone_id": "E", "stop_url": "https://www.actransit.org/stop/53545", "location_type": " ", "parent_station": " ", "stop_timezone": " ", "wheelchair_boarding": 0 }, "geometry": { "type": "Point", "coordinates": [ -13613388.546523835510015, 4547787.178137947805226 ] } },
{ "type": "Feature", "properties": { "_id": 4400, "stop_id": 6111, "stop_code": 52827, "stop_name": "W Atlantic Av & Main St", "stop_desc": " ", "stop_lat": 37.78008, "stop_lon": -122.291702, "zone_id": "E", "stop_url": "https://www.actransit.org/stop/52827", "location_type": " ", "parent_station": " ", "stop_timezone": " ", "wheelchair_boarding": 0 }, "geometry": { "type": "Point", "coordinates": [ -13613449.994882756844163, 4548404.9065495217219 ] } },
{ "type": "Feature", "properties": { "_id": 4402, "stop_id": 6114, "stop_code": 52835, "stop_name": "W Atlantic Av & Orion St", "stop_desc": " ", "stop_lat": 37.780097, "stop_lon": -122.294636, "zone_id": "E", "stop_url": "https://www.actransit.org/stop/52835", "location_type": " ", "parent_station": " ", "stop_timezone": " ", "wheelchair_boarding": 0 }, "geometry": { "type": "Point", "coordinates": [ -13613776.606268741190434, 4548407.300916996784508 ] } },
{ "type": "Feature", "properties": { "_id": 4401, "stop_id": 6112, "stop_code": 52829, "stop_name": "W Atlantic Av & Orion St", "stop_desc": " ", "stop_lat": 37.780184, "stop_lon": -122.294702, "zone_id": "E", "stop_url": "https://www.actransit.org/stop/52829", "location_type": " ", "parent_station": " ", "stop_timezone": " ", "wheelchair_boarding": 0 }, "geometry": { "type": "Point", "coordinates": [ -13613783.953355133533478, 4548419.55445328168571 ] } },
{ "type": "Feature", "properties": { "_id": 4639, "stop_id": 6422, "stop_code": 53574, "stop_name": "W Tower Av & Pan Am Way", "stop_desc": " ", "stop_lat": 37.782886, "stop_lon": -122.298623, "zone_id": "E", "stop_url": "https://www.actransit.org/stop/53574", "location_type": " ", "parent_station": " ", "stop_timezone": " ", "wheelchair_boarding": 0 }, "geometry": { "type": "Point", "coordinates": [ -13614220.437078535556793, 4548800.12548419740051 ] } },
{ "type": "Feature", "properties": { "_id": 4323, "stop_id": 5907, "stop_code": 52139, "stop_name": "Pan Am Way & W Tower Av", "stop_desc": " ", "stop_lat": 37.783245, "stop_lon": -122.298201, "zone_id": "E", "stop_url": "https://www.actransit.org/stop/52139", "location_type": " ", "parent_station": " ", "stop_timezone": " ", "wheelchair_boarding": 0 }, "geometry": { "type": "Point", "coordinates": [ -13614173.460253421217203, 4548850.690928013063967 ] } },
{ "type": "Feature", "properties": { "_id": 176, "stop_id": 210, "stop_code": 50541, "stop_name": "Webster St & Willie Stargell Av", "stop_desc": " ", "stop_lat": 37.78286, "stop_lon": -122.27677, "zone_id": "E", "stop_url": "https://www.actransit.org/stop/50541", "location_type": " ", "parent_station": " ", "stop_timezone": " ", "wheelchair_boarding": 0 }, "geometry": { "type": "Point", "coordinates": [ -13611787.772246230393648, 4548796.463372457772493 ] } },
{ "type": "Feature", "properties": { "_id": 178, "stop_id": 212, "stop_code": 50612, "stop_name": "Mariner Sq Loop & Willie Stargell Av", "stop_desc": " ", "stop_lat": 37.785082, "stop_lon": -122.278177, "zone_id": "E", "stop_url": "https://www.actransit.org/stop/50612", "location_type": " ", "parent_station": " ", "stop_timezone": " ", "wheelchair_boarding": 0 }, "geometry": { "type": "Point", "coordinates": [ -13611944.398769775405526, 4549109.437725427560508 ] } },
{ "type": "Feature", "properties": { "_id": 81, "stop_id": 85, "stop_code": 56716, "stop_name": "Marina Village Pkwy & Mariner Sq Loop", "stop_desc": " ", "stop_lat": 37.788309, "stop_lon": -122.277502, "zone_id": "E", "stop_url": "https://www.actransit.org/stop/56716", "location_type": " ", "parent_station": " ", "stop_timezone": " ", "wheelchair_boarding": 0 }, "geometry": { "type": "Point", "coordinates": [ -13611869.2581134904176, 4549563.985641984269023 ] } },
{ "type": "Feature", "properties": { "_id": 4220, "stop_id": 5647, "stop_code": 51743, "stop_name": "Mitchell Av & Diller St", "stop_desc": " ", "stop_lat": 37.788996, "stop_lon": -122.278624, "zone_id": "E", "stop_url": "https://www.actransit.org/stop/51743", "location_type": " ", "parent_station": " ", "stop_timezone": " ", "wheelchair_boarding": 0 }, "geometry": { "type": "Point", "coordinates": [ -13611994.158582160249352, 4549660.757469835691154 ] } },
{ "type": "Feature", "properties": { "_id": 4221, "stop_id": 5648, "stop_code": 51747, "stop_name": "Mitchell Av & 5th St", "stop_desc": " ", "stop_lat": 37.789536, "stop_lon": -122.279751, "zone_id": "E", "stop_url": "https://www.actransit.org/stop/51747", "location_type": " ", "parent_station": " ", "stop_timezone": " ", "wheelchair_boarding": 0 }, "geometry": { "type": "Point", "coordinates": [ -13612119.615648286417127, 4549736.823293556459248 ] } },
{ "type": "Feature", "properties": { "_id": 4692, "stop_id": 6476, "stop_code": 53686, "stop_name": "Willie Stargell Av & Haile St", "stop_desc": " ", "stop_lat": 37.784811, "stop_lon": -122.283391, "zone_id": "E", "stop_url": "https://www.actransit.org/stop/53686", "location_type": " ", "parent_station": " ", "stop_timezone": " ", "wheelchair_boarding": 0 }, "geometry": { "type": "Point", "coordinates": [ -13612524.81859477236867, 4549071.266182158142328 ] } },
{ "type": "Feature", "properties": { "_id": 4693, "stop_id": 6477, "stop_code": 53687, "stop_name": "Willie Stargell Av & Mosley Av", "stop_desc": " ", "stop_lat": 37.784816, "stop_lon": -122.28791, "zone_id": "E", "stop_url": "https://www.actransit.org/stop/53687", "location_type": " ", "parent_station": " ", "stop_timezone": " ", "wheelchair_boarding": 0 }, "geometry": { "type": "Point", "coordinates": [ -13613027.871373668313026, 4549071.970452907495201 ] } },
{ "type": "Feature", "properties": { "_id": 4690, "stop_id": 6474, "stop_code": 53683, "stop_name": "Willie Stargell Av & Coral Sea St", "stop_desc": " ", "stop_lat": 37.784898, "stop_lon": -122.284249, "zone_id": "E", "stop_url": "https://www.actransit.org/stop/53683", "location_type": " ", "parent_station": " ", "stop_timezone": " ", "wheelchair_boarding": 0 }, "geometry": { "type": "Point", "coordinates": [ -13612620.330717872828245, 4549083.520499982871115 ] } },
{ "type": "Feature", "properties": { "_id": 4222, "stop_id": 5649, "stop_code": 51752, "stop_name": "5th St & Singleton Av", "stop_desc": " ", "stop_lat": 37.786628, "stop_lon": -122.281618, "zone_id": "E", "stop_url": "https://www.actransit.org/stop/51752", "location_type": " ", "parent_station": " ", "stop_timezone": " ", "wheelchair_boarding": 0 }, "geometry": { "type": "Point", "coordinates": [ -13612327.449137594550848, 4549327.201309743337333 ] } },
{ "type": "Feature", "properties": { "_id": 4223, "stop_id": 5650, "stop_code": 51753, "stop_name": "5th St & Singleton Av", "stop_desc": " ", "stop_lat": 37.787515, "stop_lon": -122.28136, "zone_id": "E", "stop_url": "https://www.actransit.org/stop/51753", "location_type": " ", "parent_station": " ", "stop_timezone": " ", "wheelchair_boarding": 0 }, "geometry": { "type": "Point", "coordinates": [ -13612298.72870897129178, 4549452.14275791682303 ] } },
{ "type": "Feature", "properties": { "_id": 4691, "stop_id": 6475, "stop_code": 53685, "stop_name": "Willie Stargell Av & Mosley Av", "stop_desc": " ", "stop_lat": 37.784958, "stop_lon": -122.288608, "zone_id": "E", "stop_url": "https://www.actransit.org/stop/53685", "location_type": " ", "parent_station": " ", "stop_timezone": " ", "wheelchair_boarding": 0 }, "geometry": { "type": "Point", "coordinates": [ -13613105.572378240525723, 4549091.971762060187757 ] } },
{ "type": "Feature", "properties": { "_id": 4717, "stop_id": 6501, "stop_code": 53759, "stop_name": "W Midway Av & Pan Am Way", "stop_desc": " ", "stop_lat": 37.785666, "stop_lon": -122.298355, "zone_id": "E", "stop_url": "https://www.actransit.org/stop/53759", "location_type": " ", "parent_station": " ", "stop_timezone": " ", "wheelchair_boarding": 0 }, "geometry": { "type": "Point", "coordinates": [ -13614190.603455003350973, 4549191.69717272836715 ] } },
{ "type": "Feature", "properties": { "_id": 4322, "stop_id": 5906, "stop_code": 52138, "stop_name": "W Tower Av & Lexington St", "stop_desc": " ", "stop_lat": 37.783137, "stop_lon": -122.303496, "zone_id": "E", "stop_url": "https://www.actransit.org/stop/52138", "location_type": " ", "parent_station": " ", "stop_timezone": " ", "wheelchair_boarding": 0 }, "geometry": { "type": "Point", "coordinates": [ -13614762.896957172080874, 4548835.479013793170452 ] } },
{ "type": "Feature", "properties": { "_id": 4324, "stop_id": 5909, "stop_code": 52142, "stop_name": "W Midway Av & Monarch St", "stop_desc": " ", "stop_lat": 37.786348, "stop_lon": -122.308018, "zone_id": "E", "stop_url": "https://www.actransit.org/stop/52142", "location_type": " ", "parent_station": " ", "stop_timezone": " ", "wheelchair_boarding": 0 }, "geometry": { "type": "Point", "coordinates": [ -13615266.283694537356496, 4549287.761254198849201 ] } }
]
}
